{"type": "FeatureCollection", "features": [{"type":"Feature","geometry":null,"properties":{"cartodb_id":24,"company_id":16,"status":"Unknown","district":"Unknown","region":"Unknown","name":"EXMIN SYNDICATE"}},{"type":"Feature","geometry":{"type":"Point","coordinates":[30.084375,-19.605335]},"properties":{"cartodb_id":1,"company_id":1,"status":"Operational","district":"Shurugwi","region":"Midlands","name":"Unki"}},{"type":"Feature","geometry":{"type":"Point","coordinates":[31.32292,-17.287077]},"properties":{"cartodb_id":2,"company_id":2,"status":"Operational","district":"Bindura","region":"Mashonaland Central","name":"Freda Rebecca"}},{"type":"Feature","geometry":null,"properties":{"cartodb_id":65,"company_id":51,"status":"Unknown","district":"Unknown","region":"Unknown","name":"AMT 97 Mine"}},{"type":"Feature","geometry":{"type":"Point","coordinates":[31.433333,-19.95]},"properties":{"cartodb_id":3,"company_id":3,"status":"Operational","district":"Bikita","region":"Masvingo","name":"Bikita Mine"}},{"type":"Feature","geometry":{"type":"Point","coordinates":[28.551989,-19.486632]},"properties":{"cartodb_id":4,"company_id":4,"status":"Operational","district":"Inyati","region":"Matebeleland north","name":"Matopa-Isabella Mine"}},{"type":"Feature","geometry":null,"properties":{"cartodb_id":60,"company_id":46,"status":"Non-Operational","district":"Kwekwe","region":"Midlands","name":"Kwekwe Roasting Plant"}},{"type":"Feature","geometry":{"type":"Point","coordinates":[29.233333,-19.683333]},"properties":{"cartodb_id":6,"company_id":5,"status":"Unkown","district":"Shangani","region":"Midlands","name":"Shangani Mine"}},{"type":"Feature","geometry":{"type":"Point","coordinates":[29.783333,-19.15]},"properties":{"cartodb_id":7,"company_id":5,"status":"Exploration","district":"Gweru","region":"Midlands","name":"Hunter's Road"}},{"type":"Feature","geometry":{"type":"Point","coordinates":[32.056897,-17.246927]},"properties":{"cartodb_id":8,"company_id":6,"status":"Operational","district":"Mtoko","region":"Mashonaland Central","name":"Boma Granite"}},{"type":"Feature","geometry":{"type":"Point","coordinates":[29.9,-18.4833]},"properties":{"cartodb_id":9,"company_id":7,"status":"Operational","district":"Kadoma","region":"Mashonaland West","name":"Brompton Mine"}},{"type":"Feature","geometry":{"type":"Point","coordinates":[28.56,-19.46]},"properties":{"cartodb_id":10,"company_id":8,"status":"Operational","district":"Unknown","region":"Unkown","name":"Isabella-clacite"}},{"type":"Feature","geometry":{"type":"Point","coordinates":[28.9,-20.85]},"properties":{"cartodb_id":11,"company_id":9,"status":"Operational","district":"Gwanda","region":"Matebeleland South","name":"Blanket Mine"}},{"type":"Feature","geometry":null,"properties":{"cartodb_id":12,"company_id":10,"status":"Operational","district":"Kadoma/Mhondoro","region":"Mashonaland West","name":"Inez Gold Mine"}},{"type":"Feature","geometry":{"type":"Point","coordinates":[32.004818,-17.293861]},"properties":{"cartodb_id":13,"company_id":11,"status":"Operational","district":"Mtoko","region":"Mashonaland Central","name":"Carolla Quarry"}},{"type":"Feature","geometry":{"type":"Point","coordinates":[28.786394,-21.272369]},"properties":{"cartodb_id":14,"company_id":12,"status":"Non-operational","district":"Gwanda","region":"Mat South","name":"Mbeta Mine"}},{"type":"Feature","geometry":{"type":"Point","coordinates":[32.266667,-17.016667]},"properties":{"cartodb_id":15,"company_id":13,"status":"Operational","district":"Uzumba-Maramba-Pfungwe","region":"Mash central","name":"Benson Mine"}},{"type":"Feature","geometry":null,"properties":{"cartodb_id":16,"company_id":14,"status":"Operational","district":"Penhalonga","region":"Manicaland","name":"Mutare River Alluvial"}},{"type":"Feature","geometry":null,"properties":{"cartodb_id":17,"company_id":14,"status":"Operational","district":"Penhalonga","region":"Manicaland","name":"Mutare River Alluvial"}},{"type":"Feature","geometry":{"type":"Point","coordinates":[30.533,-19.2833]},"properties":{"cartodb_id":18,"company_id":15,"status":"Operational","district":"Chirumamzu","region":"Midlands","name":"Athens Mine"}},{"type":"Feature","geometry":{"type":"Point","coordinates":[28.66,-19063]},"properties":{"cartodb_id":19,"company_id":15,"status":"Operational","district":"Bubi","region":"Matabeleland North","name":"Durban Mine"}},{"type":"Feature","geometry":{"type":"Point","coordinates":[29.81,-18.94]},"properties":{"cartodb_id":20,"company_id":15,"status":"Non-Operational","district":"Kwekwe","region":"Midlands","name":"Gaika Mine"}},{"type":"Feature","geometry":{"type":"Point","coordinates":[28.8,-20.99]},"properties":{"cartodb_id":21,"company_id":15,"status":"Operational","district":"Gwanda","region":"Matebeleland South","name":"Horn Mine"}},{"type":"Feature","geometry":{"type":"Point","coordinates":[28.74352,-19.784469]},"properties":{"cartodb_id":22,"company_id":15,"status":"Operational","district":"Bubi","region":"Matabeleland North","name":"Queens Group of Mines"}},{"type":"Feature","geometry":{"type":"Point","coordinates":[28.58,-19.89]},"properties":{"cartodb_id":23,"company_id":15,"status":"Operational","district":"Bulawayo","region":"Matabeleland North","name":"Sunace Mine"}},{"type":"Feature","geometry":null,"properties":{"cartodb_id":25,"company_id":17,"status":"Unknown","district":"Unknown","region":"Unknown","name":"FALCON GOLD ZIMBABWE P/L"}},{"type":"Feature","geometry":{"type":"Point","coordinates":[30.02,-19.65]},"properties":{"cartodb_id":26,"company_id":18,"status":"Non-Operational","district":"Shurugwi","region":"Midlands","name":"Camperdown Mine"}},{"type":"Feature","geometry":{"type":"Point","coordinates":[29.85,-18.08]},"properties":{"cartodb_id":27,"company_id":19,"status":"Non-Operational","district":"Kadoma","region":"Mashonaland West","name":"Dalny Mine"}},{"type":"Feature","geometry":null,"properties":{"cartodb_id":28,"company_id":20,"status":"Operational","district":"Shurugwi","region":"Midlands","name":"Golden Quarry Mine"}},{"type":"Feature","geometry":null,"properties":{"cartodb_id":29,"company_id":21,"status":"Unknown","district":"Unknown","region":"Unknown","name":"Jim/Camperdown"}},{"type":"Feature","geometry":{"type":"Point","coordinates":[29.98,-19.61]},"properties":{"cartodb_id":30,"company_id":22,"status":"Non-Operational","district":"Shurugwi","region":"Midlands","name":"Lulu Mine"}},{"type":"Feature","geometry":{"type":"Point","coordinates":[29.77,-18.5]},"properties":{"cartodb_id":31,"company_id":23,"status":"Non-Operational","district":"Kadoma","region":"Mashonaland West","name":"Venice"}},{"type":"Feature","geometry":null,"properties":{"cartodb_id":32,"company_id":24,"status":"Unknown","district":"Unknown","region":"Unknown","name":"Whistlecook/Riverlea"}},{"type":"Feature","geometry":{"type":"Point","coordinates":[29.24,-21.02]},"properties":{"cartodb_id":33,"company_id":34,"status":"Operational","district":"Gwanda","region":"Matebeleland South","name":"Farvic Mine"}},{"type":"Feature","geometry":{"type":"Point","coordinates":[29.9,-20.5]},"properties":{"cartodb_id":34,"company_id":26,"status":"Operational","district":"Mberengwa","region":"Midlands","name":"Camp Mine"}},{"type":"Feature","geometry":null,"properties":{"cartodb_id":35,"company_id":26,"status":"Operational","district":"Gwanda","region":"Matebeleland South","name":"Long John Mine"}},{"type":"Feature","geometry":{"type":"Point","coordinates":[28.93,-20.88]},"properties":{"cartodb_id":36,"company_id":26,"status":"Operational","district":"Gwanda","region":"Matebeleland South","name":"Vubachikwe Mine"}},{"type":"Feature","geometry":{"type":"Point","coordinates":[28.625,-20.1583]},"properties":{"cartodb_id":37,"company_id":26,"status":"Operational","district":"Bulawayo","region":"Matabeleland North","name":"Bulawayo Main"}},{"type":"Feature","geometry":{"type":"Point","coordinates":[32.307302,-17.242041]},"properties":{"cartodb_id":38,"company_id":27,"status":"Operational","district":"Mtoko","region":"Mashonaland Central","name":"Granite Extraction"}},{"type":"Feature","geometry":null,"properties":{"cartodb_id":40,"company_id":28,"status":"Exploration","district":"Penhalonga","region":"Manicaland","name":"Penhlalonga Gold Project"}},{"type":"Feature","geometry":{"type":"Point","coordinates":[29.8,-18.93]},"properties":{"cartodb_id":41,"company_id":29,"status":"Non-Operational","district":"Kwekwe","region":"Midlands","name":"Globe and Phoenix Mine"}},{"type":"Feature","geometry":{"type":"Point","coordinates":[31.725,-19.19166]},"properties":{"cartodb_id":42,"company_id":30,"status":"Operational","district":"Buhera","region":"Midlands","name":"Shawa Mine"}},{"type":"Feature","geometry":{"type":"Point","coordinates":[31.7666,-19.0666]},"properties":{"cartodb_id":43,"company_id":31,"status":"operational","district":"Buhera","region":"Manicaland","name":"Dorowa Mine"}},{"type":"Feature","geometry":{"type":"Point","coordinates":[31.066667,-17.441667]},"properties":{"cartodb_id":44,"company_id":32,"status":"Operational","district":"Mazowe","region":"Mash Central","name":"Iron Duke Mine"}},{"type":"Feature","geometry":{"type":"Point","coordinates":[29.791667,-18.216667]},"properties":{"cartodb_id":45,"company_id":33,"status":"Operational","district":"Kadoma","region":"Mashonaland West","name":"Patchway and Golden Valley mines"}},{"type":"Feature","geometry":{"type":"Point","coordinates":[31.501144,-16.515826]},"properties":{"cartodb_id":46,"company_id":34,"status":"Operational","district":"Mtoko","region":"Mashonaland Central","name":"Kariyana"}},{"type":"Feature","geometry":{"type":"Point","coordinates":[31.632929,-16.726743]},"properties":{"cartodb_id":47,"company_id":35,"status":"Operational","district":"Mtoko","region":"Mashonaland Central","name":"Kazzine Mine"}},{"type":"Feature","geometry":{"type":"Point","coordinates":[31.191667,-17.783333]},"properties":{"cartodb_id":48,"company_id":36,"status":"Operational","district":"Harare","region":"Harare","name":"Chikurubi/Sternblick"}},{"type":"Feature","geometry":{"type":"Point","coordinates":[32.803478,-16.912938]},"properties":{"cartodb_id":49,"company_id":36,"status":"Operational","district":"Nyamapanda","region":"Mash Central","name":"Rogo claims"}},{"type":"Feature","geometry":{"type":"Point","coordinates":[32.255245,-17.279597]},"properties":{"cartodb_id":50,"company_id":37,"status":"Operational","district":"Mtoko","region":"Mashonaland Central","name":"Leopard Kopje Quarry"}},{"type":"Feature","geometry":{"type":"Point","coordinates":[26.562608,-18.447556]},"properties":{"cartodb_id":51,"company_id":38,"status":"Operational","district":"Hwange","region":"Mat North","name":"Makomo"}},{"type":"Feature","geometry":{"type":"Point","coordinates":[28.75,-19.52]},"properties":{"cartodb_id":52,"company_id":39,"status":"Operational","district":"Bubi","region":"Matabeleland North","name":"Lonely Mine"}},{"type":"Feature","geometry":{"type":"Point","coordinates":[28.975,-20.216667]},"properties":{"cartodb_id":39,"company_id":28,"status":"Non-Operational - Under Exploration","district":"Gwanda","region":"Matebeleland South","name":"Bushtick Mine"}},{"type":"Feature","geometry":{"type":"Point","coordinates":[28.79,-19.72]},"properties":{"cartodb_id":53,"company_id":39,"status":"Operational","district":"Bubi","region":"Matabeleland North","name":"Turk Mine"}},{"type":"Feature","geometry":{"type":"Point","coordinates":[31.32,-17.78]},"properties":{"cartodb_id":54,"company_id":40,"status":"Non-Operational","district":"Goromonzi","region":"Mashonaland East","name":"Arcturus Mine"}},{"type":"Feature","geometry":{"type":"Point","coordinates":[28.78,-20.31]},"properties":{"cartodb_id":55,"company_id":41,"status":"Operational","district":"Umzingwane","region":"Matebeleland North","name":"How Mine"}},{"type":"Feature","geometry":{"type":"Point","coordinates":[30.93,-17.48]},"properties":{"cartodb_id":56,"company_id":42,"status":"Operational","district":"Mazowe/Concession","region":"Mashonaland Central","name":"Mazowe Group pf Mines"}},{"type":"Feature","geometry":{"type":"Point","coordinates":[32.68,-18.89]},"properties":{"cartodb_id":57,"company_id":43,"status":"Operational","district":"Penhalonga","region":"Manicaland","name":"Redwing - Rezende Mine"}},{"type":"Feature","geometry":{"type":"Point","coordinates":[31.57,-17.32]},"properties":{"cartodb_id":58,"company_id":44,"status":"Operational","district":"Shamva","region":"Mashonaland central","name":"Shamva Mine"}},{"type":"Feature","geometry":{"type":"Point","coordinates":[29.803237,-20.287582]},"properties":{"cartodb_id":59,"company_id":45,"status":"Operational","district":"Zvishavane","region":"Midlands","name":"Mimosa"}},{"type":"Feature","geometry":{"type":"Point","coordinates":[31.32292,-17.287077]},"properties":{"cartodb_id":61,"company_id":47,"status":"Operational","district":"Bindura","region":"Mashonaland Central","name":"Freda Rebecca Kine"}},{"type":"Feature","geometry":{"type":"Point","coordinates":[32.293207,-17.209227]},"properties":{"cartodb_id":62,"company_id":48,"status":"Operational","district":"Mtoko","region":"Mashonaland Central","name":"Natural Stone"}},{"type":"Feature","geometry":{"type":"Point","coordinates":[32.174894,-17.294779]},"properties":{"cartodb_id":63,"company_id":49,"status":"Operational","district":"Mtoko","region":"Mashonaland Central","name":"Nyamakope Quarry"}},{"type":"Feature","geometry":{"type":"Point","coordinates":[28.64,-20.14]},"properties":{"cartodb_id":64,"company_id":50,"status":"Operational","district":"Unknown","region":"Unknown","name":"Old Nic Mine"}},{"type":"Feature","geometry":{"type":"Point","coordinates":[30.38,-17.18]},"properties":{"cartodb_id":66,"company_id":51,"status":"Operational","district":"Makonde","region":"Mashonaland West","name":"Aryshire Mine"}},{"type":"Feature","geometry":{"type":"Point","coordinates":[30.6,-17.23]},"properties":{"cartodb_id":67,"company_id":51,"status":"Operational","district":"Makonde","region":"Mashonaland West","name":"Muriel Mine"}},{"type":"Feature","geometry":{"type":"Point","coordinates":[29.77,-18.83]},"properties":{"cartodb_id":68,"company_id":52,"status":"Non-Operational","district":"Kwekwe","region":"Midlands","name":"Indarama Mine"}},{"type":"Feature","geometry":{"type":"Point","coordinates":[29.216667,-21.016667]},"properties":{"cartodb_id":69,"company_id":53,"status":"Operational","district":"Colleen Bawn/Gwanda","region":"Mat South","name":"Collen Bawn"}},{"type":"Feature","geometry":{"type":"Point","coordinates":[31.467597,-16.717493]},"properties":{"cartodb_id":70,"company_id":54,"status":"Operational","district":"Mtoko","region":"Mashonaland Central","name":"Quarrying Enterprises"}},{"type":"Feature","geometry":{"type":"Point","coordinates":[31.17,-20.63]},"properties":{"cartodb_id":71,"company_id":55,"status":"Operational","district":"Chiredzi","region":"Masvingo","name":"Renco Mine"}},{"type":"Feature","geometry":{"type":"Point","coordinates":[29.98,-18.32]},"properties":{"cartodb_id":72,"company_id":55,"status":"Non-Operational","district":"Kadoma","region":"Mashonaland West","name":"Cam and Motor Mine"}},{"type":"Feature","geometry":{"type":"Point","coordinates":[31.5952,-16.698636]},"properties":{"cartodb_id":74,"company_id":57,"status":"Operational","district":"Mtoko","region":"Mashonaland Central","name":"Rock Rose Quarry"}},{"type":"Feature","geometry":{"type":"Point","coordinates":[30.100028,-19.410712]},"properties":{"cartodb_id":75,"company_id":58,"status":"Operational","district":"Gweru","region":"Midlands","name":"Gweru/Indiva"}},{"type":"Feature","geometry":{"type":"Point","coordinates":[29.308333,-21.05]},"properties":{"cartodb_id":76,"company_id":59,"status":"Operational","district":"Gwanda","region":"Matebeleland South","name":"Jessie Mine"}},{"type":"Feature","geometry":{"type":"Point","coordinates":[29.28,-21.04]},"properties":{"cartodb_id":77,"company_id":59,"status":"Operational","district":"Gwanda","region":"Matebeleland South","name":"Londan Wall Mine"}},{"type":"Feature","geometry":{"type":"Point","coordinates":[31.970141,-17.238668]},"properties":{"cartodb_id":78,"company_id":60,"status":"Operational","district":"Mtoko","region":"Mashonaland Central","name":"Stone Enterprises"}},{"type":"Feature","geometry":{"type":"Point","coordinates":[31.958515,-16.895304]},"properties":{"cartodb_id":79,"company_id":61,"status":"Operational","district":"Mtoko","region":"Mashonaland Central","name":"Three Baobabs"}},{"type":"Feature","geometry":{"type":"Point","coordinates":[26.483333,-18.366667]},"properties":{"cartodb_id":80,"company_id":62,"status":"Operational","district":"Hwange","region":"Mat North","name":"Wankie"}},{"type":"Feature","geometry":{"type":"Point","coordinates":[30.016667,-19.725]},"properties":{"cartodb_id":83,"company_id":64,"status":"Operational","district":"Shurugwi","region":"Midlands","name":"Peak Mine"}},{"type":"Feature","geometry":{"type":"Point","coordinates":[30,-19.658333]},"properties":{"cartodb_id":84,"company_id":64,"status":"Operational","district":"Shurugwi","region":"Midlands","name":"Railway Block Mine"}},{"type":"Feature","geometry":{"type":"Point","coordinates":[30.005,-19.675]},"properties":{"cartodb_id":85,"company_id":64,"status":"Operational","district":"Shurugwi","region":"Midlands","name":"Ironton Mine"}},{"type":"Feature","geometry":{"type":"Point","coordinates":[30.061659,-19.509629]},"properties":{"cartodb_id":86,"company_id":64,"status":"Operational","district":"Shurugwi","region":"Midlands","name":"Valley Mine"}},{"type":"Feature","geometry":null,"properties":{"cartodb_id":87,"company_id":64,"status":"Operational","district":"Mtorashanga","region":"Mash West","name":"Mutorashanga"}},{"type":"Feature","geometry":{"type":"Point","coordinates":[30.3612,-18.630125]},"properties":{"cartodb_id":89,"company_id":66,"status":"Operational","district":"Mhondoro/Chegutu","region":"Mashonaland West","name":"Ngezi"}},{"type":"Feature","geometry":{"type":"Point","coordinates":[30.421115,-18.020141]},"properties":{"cartodb_id":90,"company_id":66,"status":"Care and Maintenance","district":"Zvimba","region":"Mashonaland West","name":"Selous/Hartley"}},{"type":"Feature","geometry":{"type":"Point","coordinates":[29.758333,-19.016667]},"properties":{"cartodb_id":92,"company_id":68,"status":"Operationaal","district":"Kwekwe","region":"Midlands","name":"Ripple Creek Mine"}},{"type":"Feature","geometry":{"type":"Point","coordinates":[29.933333,-20.916667]},"properties":{"cartodb_id":93,"company_id":69,"status":"Non-operational","district":"Mberengwa","region":"Midlands","name":"Sandawana Mine"}},{"type":"Feature","geometry":{"type":"Point","coordinates":[30.13,-18.03]},"properties":{"cartodb_id":101,"company_id":69,"status":"Operational","district":"Chegutu","region":"Mashonaland West","name":"Elvington Mine"}},{"type":"Feature","geometry":null,"properties":{"cartodb_id":102,"company_id":69,"status":"Non-Operational","district":"Mberengwa","region":"Midlands","name":"Sabi Gold Mine"}},{"type":"Feature","geometry":{"type":"Point","coordinates":[29.148465,-18.858855]},"properties":{"cartodb_id":103,"company_id":69,"status":"Operational","district":"Kwekwe","region":"Midlands","name":"Jena Mines"}},{"type":"Feature","geometry":{"type":"Point","coordinates":[31.3,-17.316667]},"properties":{"cartodb_id":5,"company_id":5,"status":"Operational","district":"Bindura","region":"Mash Central","name":"Trojan Mine"}},{"type":"Feature","geometry":{"type":"Point","coordinates":[30.166667,-20.9]},"properties":{"cartodb_id":81,"company_id":63,"status":"Non-Operational","district":"Mberengwa","region":"Midlands","name":"Inyala Mine"}},{"type":"Feature","geometry":{"type":"Point","coordinates":[30.191667,-20.966667]},"properties":{"cartodb_id":82,"company_id":63,"status":"Non-Operational","district":"Mberengwa","region":"Midlands","name":"Rhonda Mine"}},{"type":"Feature","geometry":{"type":"Point","coordinates":[30,-19.81]},"properties":{"cartodb_id":95,"company_id":69,"status":"Exploration","district":"Shurugwi","region":"Midlands","name":"Todal Mine"}},{"type":"Feature","geometry":{"type":"Point","coordinates":[30.385123,-18.375477]},"properties":{"cartodb_id":94,"company_id":69,"status":"Exploration","district":"Chegutu/Zvimba","region":"Mashonaland West","name":"Zinca"}},{"type":"Feature","geometry":{"type":"Point","coordinates":[26.976562,-18.345539]},"properties":{"cartodb_id":100,"company_id":69,"status":"Non-Operational","district":"Kamativi","region":"Mat North","name":"Gwaai"}},{"type":"Feature","geometry":{"type":"Point","coordinates":[26.843699,-18.394397]},"properties":{"cartodb_id":99,"company_id":69,"status":"Non-Operational","district":"Kamativi","region":"Mat North","name":"Kapata"}},{"type":"Feature","geometry":{"type":"Point","coordinates":[26.631123,-18.532517]},"properties":{"cartodb_id":98,"company_id":69,"status":"Non-Operational","district":"Kamativi","region":"Mat North","name":"R.H.A."}},{"type":"Feature","geometry":{"type":"Point","coordinates":[26.950322,-18.364901]},"properties":{"cartodb_id":97,"company_id":69,"status":"Non-Operational","district":"Kamativi","region":"Mat North","name":"Lutope"}},{"type":"Feature","geometry":{"type":"Point","coordinates":[27.055749,-18.342606]},"properties":{"cartodb_id":96,"company_id":69,"status":"Non-Operational","district":"Kamativi","region":"Mat North","name":"Kamativi"}},{"type":"Feature","geometry":{"type":"Point","coordinates":[29.45,-16.6]},"properties":{"cartodb_id":88,"company_id":65,"status":"Operational","district":"Makonde","region":"Mash West","name":"Lynx Mine"}},{"type":"Feature","geometry":{"type":"Point","coordinates":[28.25,-17.616667]},"properties":{"cartodb_id":73,"company_id":56,"status":"Non-Operational","district":"Gokwe","region":"Midlands","name":"Sengwa Coal"}}]}